{
    "code": 0,
    "msg": "ok",
    "val": {
        "community_list": [
            {
                "id": 323631,
                "name": "\u82f1\u4f26\u540d\u82d1(\u4e00\u671f)",
                "address": "\u6c99\u6cb3\u897f\u8def2025",
                "build_date": "2003\u5e74",
                "lat": "22.554285",
                "lng": "113.962989",
                "prop_num": 2
            },
            {
                "id": 867991,
                "name": "\u5927\u51b2\u65b0\u57ce\u82b1\u56ed",
                "address": "\u79d1\u53d1\u8def",
                "build_date": "2015\u5e74",
                "lat": "22.548016",
                "lng": "113.958769",
                "prop_num": 999
            },
            {
                "id": 97672,
                "name": "\u6df1\u5357\u82b1\u56ed",
                "address": "\u79d1\u5174\u8def11\u53f7",
                "build_date": "1996\u5e74",
                "lat": "22.546531",
                "lng": "113.950846",
                "prop_num": 283
            },
            {
                "id": 1034006,
                "name": "\u534e\u6da6\u57ce\u6da6\u5e9c\u4e8c\u671f",
                "address": "\u94dc\u9f13\u8def",
                "build_date": "2017\u5e74",
                "lat": "22.549787",
                "lng": "113.961116",
                "prop_num": 386
            },
            {
                "id": 95504,
                "name": "\u6c47\u666f\u8c6a\u82d1",
                "address": "\u79d1\u5174\u8def10\u53f7",
                "build_date": "2000\u5e74",
                "lat": "22.546839",
                "lng": "113.94946",
                "prop_num": 249
            },
            {
                "id": 864188,
                "name": "\u79d1\u6280\u56ed\u4e09\u5341\u516d\u533a",
                "address": "\u79d1\u534e\u8def2\u53f7",
                "build_date": "1995\u5e74",
                "lat": "22.552004",
                "lng": "113.955856",
                "prop_num": 13
            },
            {
                "id": 95674,
                "name": "\u82f1\u4f26\u540d\u82d1(\u4e8c\u671f)",
                "address": "\u6c99\u6cb3\u897f\u8def2021\u53f7",
                "build_date": "2003\u5e74",
                "lat": "22.553588",
                "lng": "113.96402",
                "prop_num": 4
            },
            {
                "id": 724900,
                "name": "\u5927\u51b2\u57ce\u5e02\u82b1\u56ed",
                "address": "\u5927\u51b2\u4e8c\u8def",
                "build_date": "2014\u5e74",
                "lat": "22.54992",
                "lng": "113.963342",
                "prop_num": 690
            },
            {
                "id": 790585,
                "name": "\u5927\u51b2\u90fd\u5e02\u82b1\u56ed",
                "address": "\u94dc\u9f13\u8def",
                "build_date": "",
                "lat": "22.549515",
                "lng": "113.959772",
                "prop_num": 335
            },
            {
                "id": 95483,
                "name": "\u51ef\u4e3d\u82b1\u56ed",
                "address": "\u9ad8\u65b0\u4e2d\u56db\u90536\u53f7",
                "build_date": "1996\u5e74",
                "lat": "22.54864",
                "lng": "113.946335",
                "prop_num": 140
            },
            {
                "id": 189413,
                "name": "\u79d1\u6280\u56ed\u5c0f\u533a",
                "address": "\u7fe0\u6eaa\u8def1\u53f7",
                "build_date": "1991\u5e74",
                "lat": "22.551422",
                "lng": "113.956737",
                "prop_num": 137
            },
            {
                "id": 349209,
                "name": "\u79d1\u82d1\u5c45",
                "address": "\u7fe0\u6eaa\u8def",
                "build_date": "1995\u5e74",
                "lat": "22.54861",
                "lng": "113.950228",
                "prop_num": 91
            },
            {
                "id": 843328,
                "name": "\u79d1\u6280\u56ed\u4f4f\u5b85\u5c0f\u533a",
                "address": "\u9752\u68a7\u8def1\u53f7",
                "build_date": "1998\u5e74",
                "lat": "22.551398",
                "lng": "113.956724",
                "prop_num": 1
            },
            {
                "id": 652107,
                "name": "\u7ea2\u6811\u522b\u9662",
                "address": "\u6c99\u6cb3\u897f\u8def2015\u53f7",
                "build_date": "2014\u5e74",
                "lat": "22.552059",
                "lng": "113.963485",
                "prop_num": 12
            },
            {
                "id": 843275,
                "name": "\u8b66\u5bdf\u82b1\u56ed",
                "address": "\u9ad8\u65b0\u4e2d\u56db\u905311\u53f7",
                "build_date": "1995\u5e74",
                "lat": "22.547957",
                "lng": "113.944307",
                "prop_num": 27
            },
            {
                "id": 864187,
                "name": "\u79d1\u6280\u56ed\u4e94\u5341\u516b\u533a",
                "address": "\u6587\u534e\u8def",
                "build_date": "2009\u5e74",
                "lat": "22.554039",
                "lng": "113.957801",
                "prop_num": 4
            },
            {
                "id": 98229,
                "name": "\u82f1\u4f26\u540d\u82d1(\u4e09\u671f)",
                "address": "\u6c99\u6cb3\u897f\u8def2023\u53f7",
                "build_date": "2005\u5e74",
                "lat": "22.553472",
                "lng": "113.96218",
                "prop_num": 6
            },
            {
                "id": 843329,
                "name": "\u79d1\u82d1\u897f\u4f4f\u5b85\u5c0f\u533a",
                "address": "\u79d1\u5174\u8def6\u53f7",
                "build_date": "",
                "lat": "22.548008",
                "lng": "113.950783",
                "prop_num": 25
            },
            {
                "id": 287791,
                "name": "\u79d1\u82d1\u5c71\u5e84",
                "address": "\u6587\u534e\u8def4\u53f7",
                "build_date": "2003\u5e74",
                "lat": "22.553977",
                "lng": "113.955825",
                "prop_num": 9
            },
            {
                "id": 843330,
                "name": "\u79d1\u82d1\u5c0f\u533a",
                "address": "\u79d1\u4f1f\u8def8\u53f7",
                "build_date": "1998\u5e74",
                "lat": "22.55486",
                "lng": "113.953328",
                "prop_num": 30
            },
            {
                "id": 1032936,
                "name": "\u79d1\u6280\u56ed\u56db\u5341\u516b\u533a",
                "address": "\u79d1\u4f1f\u8def",
                "build_date": "1993\u5e74",
                "lat": "22.554224",
                "lng": "113.953389",
                "prop_num": 1
            },
            {
                "id": 95496,
                "name": "\u6717\u666f\u56ed",
                "address": "\u79d1\u6280\u8def2\u53f7",
                "build_date": "2001\u5e74",
                "lat": "22.546673",
                "lng": "113.957081",
                "prop_num": 62
            },
            {
                "id": 907366,
                "name": "\u534e\u6da6\u57ce\u6da6\u5e9c\u4e00\u671f",
                "address": "\u6df1\u5357\u5927\u90539672\u53f7",
                "build_date": "2018\u5e74",
                "lat": "22.54672",
                "lng": "113.959844",
                "prop_num": 535
            },
            {
                "id": 288065,
                "name": "\u535a\u5ba2\u516c\u5bd3",
                "address": "\u79d1\u4f1f\u8def2\u53f7",
                "build_date": "2009\u5e74",
                "lat": "22.552825",
                "lng": "113.953534",
                "prop_num": 12
            },
            {
                "id": 170178,
                "name": "\u83b1\u8335\u82b1\u56ed",
                "address": "\u6c99\u6cb3\u897f\u8def2017\u53f7",
                "build_date": "2003\u5e74",
                "lat": "22.55284",
                "lng": "113.962731",
                "prop_num": 1
            }
        ],
        "match_data": []
    }
}